[{"region_name":"Šumadija",
  "name":"Ada Ciganlija",
  "section":"",
  "mountain_top":false,
  "top_name":"",
  "region_id":2,
  "id":32,
  "lat":44.79178923964239,
  "top_elevation":"",
  "lng":20.41783332824707},
 {"region_name":"Šumadija",
  "name":"Avala",
  "section":"",
  "mountain_top":true,
  "top_name":"Spomenik neznanom junaku",
  "region_id":2,
  "id":47,
  "lat":44.6891744188914,
  "top_elevation":"506",
  "lng":20.516109466552734},
 {"region_name":"Jugoistočna Srbija",
  "name":"Babička gora",
  "section":"",
  "mountain_top":true,
  "top_name":"Kriva buka",
  "region_id":7,
  "id":368,
  "lat":43.12504316740127,
  "top_elevation":"1059",
  "lng":22.061233520507812},
 {"region_name":"Istočna Srbija",
  "name":"Beljanica",
  "section":"",
  "mountain_top":false,
  "top_name":"",
  "region_id":4,
  "id":116,
  "lat":44.1115973,
  "top_elevation":"1339",
  "lng":21.69904729999996},
 {"region_name":"Jugoistočna Srbija",
  "name":"Besna Kobila",
  "section":"",
  "mountain_top":true,
  "top_name":"Besna Kobila",
  "region_id":7,
  "id":97,
  "lat":42.5294444,
  "top_elevation":"1923",
  "lng":22.230555600000002},
 {"region_name":"Šumadija",
  "name":"Bešnjaja",
  "section":"15",
  "mountain_top":true,
  "top_name":"Lisin laz",
  "region_id":2,
  "id":124,
  "lat":43.98129140272785,
  "top_elevation":"613",
  "lng":21.042648462652096},
 {"region_name":"Jugozapadna Srbija",
  "name":"Bič",
  "section":"",
  "mountain_top":true,
  "top_name":"Golet",
  "region_id":5,
  "id":193,
  "lat":43.56948911688113,
  "top_elevation":"1386 m",
  "lng":19.48900358249292},
 {"region_name":"Zapadna Srbija",
  "name":"Bobija",
  "section":"",
  "mountain_top":true,
  "top_name":"Tornička Bobija",
  "region_id":3,
  "id":128,
  "lat":44.19650525569945,
  "top_elevation":"1272",
  "lng":19.554532170295715},
 {"region_name":"Vojvodina",
  "name":"Bojčinska šuma",
  "section":"15",
  "mountain_top":false,
  "top_name":"",
  "region_id":1,
  "id":192,
  "lat":44.72758214210354,
  "top_elevation":"80",
  "lng":20.163609826107248},
 {"region_name":"Zapadna Srbija",
  "name":"Boranja",
  "section":"",
  "mountain_top":true,
  "top_name":"Crni vrh",
  "region_id":3,
  "id":90,
  "lat":44.376140479200124,
  "top_elevation":"856",
  "lng":19.258861541748047},
 {"region_name":"Istočna Srbija",
  "name":"Bostava",
  "section":"",
  "mountain_top":true,
  "top_name":"Bostava",
  "region_id":4,
  "id":125,
  "lat":43.983573665615204,
  "top_elevation":"350m",
  "lng":21.46634047092914},
 {"region_name":"Istočna Srbija",
  "name":"Braničevo",
  "section":"",
  "mountain_top":false,
  "top_name":"",
  "region_id":4,
  "id":53,
  "lat":44.613399328354134,
  "top_elevation":"",
  "lng":21.5386962890625},
 {"region_name":"Jugozapadna Srbija",
  "name":"Budeč",
  "section":"",
  "mountain_top":true,
  "top_name":"Budeč",
  "region_id":5,
  "id":418,
  "lat":43.62425,
  "top_elevation":"1207",
  "lng":20.01475},
 {"region_name":"Istočna Srbija",
  "name":"Bukovik",
  "section":"",
  "mountain_top":true,
  "top_name":"Bukova poljana",
  "region_id":4,
  "id":120,
  "lat":43.691667,
  "top_elevation":"894",
  "lng":21.63555599999995},
 {"region_name":"Šumadija",
  "name":"Bukovik (Čačak)",
  "section":"",
  "mountain_top":true,
  "top_name":"Bukovik",
  "region_id":2,
  "id":203,
  "lat":43.9493259,
  "top_elevation":"851",
  "lng":20.484581},
 {"region_name":"Šumadija",
  "name":"Bukulja",
  "section":"",
  "mountain_top":true,
  "top_name":"Bukulja",
  "region_id":2,
  "id":86,
  "lat":44.298060636295695,
  "top_elevation":"696",
  "lng":20.52943468093872},
 {"region_name":"Vojvodina",
  "name":"Carska bara",
  "section":"",
  "mountain_top":false,
  "top_name":"",
  "region_id":1,
  "id":46,
  "lat":45.28181686637889,
  "top_elevation":"",
  "lng":20.41682481765747},
 {"region_name":"Jugoistočna Srbija",
  "name":"Čemernik",
  "section":"",
  "mountain_top":true,
  "top_name":"Veliki Čemernik",
  "region_id":7,
  "id":78,
  "lat":42.7345939,
  "top_elevation":"1638",
  "lng":22.277108399999975},
 {"region_name":"Jugozapadna Srbija",
  "name":"Čemerno",
  "section":"",
  "mountain_top":true,
  "top_name":"Smrdljuč",
  "region_id":5,
  "id":60,
  "lat":43.56610103028063,
  "top_elevation":"1579",
  "lng":20.461349487304688},
 {"region_name":"Zapadna Srbija",
  "name":"Cer",
  "section":"",
  "mountain_top":false,
  "top_name":"",
  "region_id":3,
  "id":65,
  "lat":44.60333993726995,
  "top_elevation":"687",
  "lng":19.493329524993896},
 {"region_name":"Vojvodina",
  "name":"Čortanovačka šuma",
  "section":"",
  "mountain_top":true,
  "top_name":"Čortanovačka šuma",
  "region_id":1,
  "id":91,
  "lat":45.166713573279885,
  "top_elevation":"207",
  "lng":20.02131700515747},
 {"region_name":"Šumadija",
  "name":"Crni vrh",
  "section":"16",
  "mountain_top":true,
  "top_name":"Crni vrh",
  "region_id":2,
  "id":204,
  "lat":44.0102778,
  "top_elevation":"707",
  "lng":21.1105556},
 {"region_name":"Jugozapadna Srbija",
  "name":"Debela gora",
  "section":"15",
  "mountain_top":true,
  "top_name":"Branojevac",
  "region_id":5,
  "id":408,
  "lat":43.8866667,
  "top_elevation":"791",
  "lng":20.1666667},
 {"region_name":"Istočna Srbija",
  "name":"Deli Jovan",
  "section":"",
  "mountain_top":true,
  "top_name":"Crni vrh",
  "region_id":4,
  "id":55,
  "lat":44.2541667,
  "top_elevation":"1141",
  "lng":22.204999999999927},
 {"region_name":"Vojvodina",
  "name":"Deliblatska peščara",
  "section":"",
  "mountain_top":false,
  "top_name":"",
  "region_id":1,
  "id":48,
  "lat":44.88361099999999,
  "top_elevation":"",
  "lng":21.092499999999973},
 {"region_name":"Istočna Srbija",
  "name":"Devica",
  "section":"",
  "mountain_top":true,
  "top_name":"Čapljinac",
  "region_id":4,
  "id":57,
  "lat":43.593889,
  "top_elevation":"1187",
  "lng":21.944166999999993},
 {"region_name":"Istočna Srbija",
  "name":"Đerdap",
  "section":"",
  "mountain_top":false,
  "top_name":"",
  "region_id":4,
  "id":37,
  "lat":44.44516686241819,
  "top_elevation":"",
  "lng":22.179336547851562},
 {"region_name":"Vojvodina",
  "name":"Fruška gora",
  "section":"",
  "mountain_top":true,
  "top_name":"Crveni čot",
  "region_id":1,
  "id":63,
  "lat":45.1570803,
  "top_elevation":"538",
  "lng":19.70932719999996},
 {"region_name":"Šumadija",
  "name":"Gledićke planine",
  "section":"",
  "mountain_top":true,
  "top_name":"Samar",
  "region_id":2,
  "id":61,
  "lat":43.750833,
  "top_elevation":"922",
  "lng":20.95083299999999},
 {"region_name":"Kopaoničko-Toplička regija",
  "name":"Goč",
  "section":"",
  "mountain_top":true,
  "top_name":"Ljukten",
  "region_id":6,
  "id":72,
  "lat":43.5625,
  "top_elevation":"1216",
  "lng":20.84138889999997},
 {"region_name":"Jugoistočna Srbija",
  "name":"Golemi Kičer",
  "section":"",
  "mountain_top":true,
  "top_name":"Golemi Kičer",
  "region_id":7,
  "id":103,
  "lat":42.54079570029984,
  "top_elevation":"1143",
  "lng":22.07599639892578},
 {"region_name":"Jugozapadna Srbija",
  "name":"Golija",
  "section":"",
  "mountain_top":true,
  "top_name":"Jankov kamen",
  "region_id":5,
  "id":34,
  "lat":43.339384144448665,
  "top_elevation":"1833",
  "lng":20.27701735496521},
 {"region_name":"Vojvodina",
  "name":"Gornje Podunavlje",
  "section":"",
  "mountain_top":false,
  "top_name":"",
  "region_id":1,
  "id":36,
  "lat":45.78132198834048,
  "top_elevation":"",
  "lng":18.958282470703125},
 {"region_name":"Jugoistočna Srbija",
  "name":"Gramada",
  "section":"15",
  "mountain_top":true,
  "top_name":"Vrtop",
  "region_id":7,
  "id":162,
  "lat":42.792828818501825,
  "top_elevation":"1721",
  "lng":22.373222322588624},
 {"region_name":"Jugoistočna Srbija",
  "name":"Grot",
  "section":"",
  "mountain_top":true,
  "top_name":"Grot",
  "region_id":7,
  "id":102,
  "lat":42.624595251376334,
  "top_elevation":"1327",
  "lng":21.9081974029541},
 {"region_name":"Zapadna Srbija",
  "name":"Gučevo",
  "section":"",
  "mountain_top":true,
  "top_name":"Crni vrh",
  "region_id":3,
  "id":89,
  "lat":44.480279125845506,
  "top_elevation":"779",
  "lng":19.184961318969727},
 {"region_name":"Istočna Srbija",
  "name":"Homoljske planine",
  "section":"",
  "mountain_top":true,
  "top_name":"Štubelj",
  "region_id":4,
  "id":54,
  "lat":44.3258333,
  "top_elevation":"940",
  "lng":21.757777799999985},
 {"region_name":"Zapadna Srbija",
  "name":"Iverak",
  "section":"",
  "mountain_top":false,
  "top_name":"",
  "region_id":3,
  "id":93,
  "lat":44.56166504965998,
  "top_elevation":"",
  "lng":19.461593627929688},
 {"region_name":"Zapadna Srbija",
  "name":"Jablanik",
  "section":"",
  "mountain_top":true,
  "top_name":"Jablanik",
  "region_id":3,
  "id":198,
  "lat":44.17642990832983,
  "top_elevation":"1274",
  "lng":19.666836297177966},
 {"region_name":"Jugozapadna Srbija",
  "name":"Jadovnik",
  "section":"",
  "mountain_top":true,
  "top_name":"Katunić",
  "region_id":5,
  "id":68,
  "lat":43.276018,
  "top_elevation":"1732",
  "lng":19.833326299999953},
 {"region_name":"Kopaoničko-Toplička regija",
  "name":"Jastrebac",
  "section":"",
  "mountain_top":true,
  "top_name":"Velika Đulica",
  "region_id":6,
  "id":135,
  "lat":43.39135264534556,
  "top_elevation":"1491",
  "lng":21.44331244031889},
 {"region_name":"Istočna Srbija",
  "name":"Ježevac",
  "section":"",
  "mountain_top":true,
  "top_name":"Ježevac",
  "region_id":4,
  "id":112,
  "lat":44.26497871500195,
  "top_elevation":"675",
  "lng":21.516841650009155},
 {"region_name":"Šumadija",
  "name":"Juhor",
  "section":"",
  "mountain_top":true,
  "top_name":"Veliki Vetren",
  "region_id":2,
  "id":191,
  "lat":43.81183121918621,
  "top_elevation":"775",
  "lng":21.264467239379883},
 {"region_name":"Istočna Srbija",
  "name":"Južni Kučaj",
  "section":"",
  "mountain_top":true,
  "top_name":"Velika Tresta",
  "region_id":4,
  "id":127,
  "lat":44.082715876876506,
  "top_elevation":"1284",
  "lng":21.8232710928869},
 {"region_name":"Zapadna Srbija",
  "name":"Kablar",
  "section":"",
  "mountain_top":true,
  "top_name":"Kablar",
  "region_id":3,
  "id":390,
  "lat":43.91328256132344,
  "top_elevation":"889",
  "lng":20.182528696620164},
 {"region_name":"Istočna Srbija",
  "name":"Kalafat",
  "section":"",
  "mountain_top":true,
  "top_name":"Kalafat",
  "region_id":4,
  "id":96,
  "lat":43.39676754113135,
  "top_elevation":"838",
  "lng":21.985058784484863},
 {"region_name":"Vojvodina",
  "name":"Kanjiža",
  "section":"",
  "mountain_top":false,
  "top_name":"",
  "region_id":1,
  "id":44,
  "lat":46.061602,
  "top_elevation":"",
  "lng":20.04695760000004},
 {"region_name":"Vojvodina",
  "name":"Karađorđevo",
  "section":"",
  "mountain_top":false,
  "top_name":"",
  "region_id":1,
  "id":43,
  "lat":45.3003353,
  "top_elevation":"",
  "lng":19.302354700000024},
 {"region_name":"Zapadna Srbija",
  "name":"Klisura reke Gradac",
  "section":"Vrelo Gradac",
  "mountain_top":false,
  "top_name":"",
  "region_id":3,
  "id":384,
  "lat":44.21032628889697,
  "top_elevation":"",
  "lng":19.855985641479492},
 {"region_name":"Kopaoničko-Toplička regija",
  "name":"Kopaonik",
  "section":"",
  "mountain_top":true,
  "top_name":"Pnčićev vrh",
  "region_id":6,
  "id":76,
  "lat":43.2680447,
  "top_elevation":"2016",
  "lng":20.826308799999993},
 {"region_name":"Šumadija",
  "name":"Kotlenik",
  "section":"",
  "mountain_top":true,
  "top_name":"Veliki vrh",
  "region_id":2,
  "id":126,
  "lat":43.843464108804724,
  "top_elevation":"749m",
  "lng":20.678842302590283},
 {"region_name":"Istočna Srbija",
  "name":"Krstatac",
  "section":"",
  "mountain_top":true,
  "top_name":"Šiljak",
  "region_id":4,
  "id":70,
  "lat":43.67256668096673,
  "top_elevation":"1070",
  "lng":22.06329345703125},
 {"region_name":"Jugoistočna Srbija",
  "name":"Krstilovica",
  "section":"",
  "mountain_top":true,
  "top_name":"Krstilovica",
  "region_id":7,
  "id":100,
  "lat":42.56984758856508,
  "top_elevation":"1154",
  "lng":21.86030387878418},
 {"region_name":"Istočna Srbija",
  "name":"Kučaj (Resavica)",
  "section":"",
  "mountain_top":true,
  "top_name":"Izgoreli vrh",
  "region_id":4,
  "id":81,
  "lat":43.964009366761175,
  "top_elevation":"882",
  "lng":21.43878936767578},
 {"region_name":"Istočna Srbija",
  "name":"Kučaj Malinik",
  "section":"",
  "mountain_top":true,
  "top_name":"Veliki Malinik",
  "region_id":4,
  "id":56,
  "lat":44.083056,
  "top_elevation":"1158",
  "lng":21.82388900000001},
 {"region_name":"Jugoistočna Srbija",
  "name":"Kukavica",
  "section":"",
  "mountain_top":true,
  "top_name":"Vlajna",
  "region_id":7,
  "id":69,
  "lat":42.79098000073834,
  "top_elevation":"1440",
  "lng":21.941070556640625},
 {"region_name":"Šumadija",
  "name":"Lajkovac",
  "section":"",
  "mountain_top":true,
  "top_name":"Čovka",
  "region_id":2,
  "id":409,
  "lat":44.351638794,
  "top_elevation":"272",
  "lng":20.220046997},
 {"region_name":"Istočna Srbija",
  "name":"Lepenski vir",
  "section":"",
  "mountain_top":false,
  "top_name":"",
  "region_id":4,
  "id":59,
  "lat":44.4631546,
  "top_elevation":"",
  "lng":22.14870880000001},
 {"region_name":"Zapadna Srbija",
  "name":"Magleš",
  "section":"",
  "mountain_top":true,
  "top_name":"Magleš",
  "region_id":3,
  "id":199,
  "lat":44.14827877234611,
  "top_elevation":"1036",
  "lng":19.841767187312765},
 {"region_name":"Kopaoničko-Toplička regija",
  "name":"Mali Jastrebac",
  "section":"",
  "mountain_top":true,
  "top_name":"Kupinjak",
  "region_id":6,
  "id":85,
  "lat":43.382547948097525,
  "top_elevation":"946",
  "lng":21.64306640625},
 {"region_name":"Zapadna Srbija",
  "name":"Maljen",
  "section":"",
  "mountain_top":true,
  "top_name":"Kraljev sto ",
  "region_id":3,
  "id":155,
  "lat":44.118700565873354,
  "top_elevation":"1104",
  "lng":20.022344291210175},
 {"region_name":"Jugozapadna Srbija",
  "name":"Mučanj",
  "section":"",
  "mountain_top":true,
  "top_name":"Mučanj",
  "region_id":5,
  "id":95,
  "lat":43.54498506528094,
  "top_elevation":"1534",
  "lng":20.034513473510742},
 {"region_name":"Jugoistočna Srbija",
  "name":"Oblik",
  "section":"",
  "mountain_top":true,
  "top_name":"Oblik",
  "region_id":7,
  "id":101,
  "lat":43.32217564899267,
  "top_elevation":"901",
  "lng":22.14499993075549},
 {"region_name":"Šumadija",
  "name":"Orašac",
  "section":"",
  "mountain_top":false,
  "top_name":"",
  "region_id":2,
  "id":88,
  "lat":44.33307669186432,
  "top_elevation":"",
  "lng":20.585718154907227},
 {"region_name":"Zapadna Srbija",
  "name":"Ostreš",
  "section":"",
  "mountain_top":true,
  "top_name":"Ostreš",
  "region_id":3,
  "id":200,
  "lat":44.133971618233474,
  "top_elevation":"973",
  "lng":19.812140016229026},
 {"region_name":"Šumadija",
  "name":"Ostrica",
  "section":"",
  "mountain_top":true,
  "top_name":"Ostrica",
  "region_id":2,
  "id":202,
  "lat":43.9347924,
  "top_elevation":"802",
  "lng":20.531956},
 {"region_name":"Jugozapadna Srbija",
  "name":"Ovčar",
  "section":"",
  "mountain_top":true,
  "top_name":"Ovčar",
  "region_id":5,
  "id":83,
  "lat":43.8963889,
  "top_elevation":"986",
  "lng":20.21694439999999},
 {"region_name":"Istočna Srbija",
  "name":"Ozren",
  "section":"",
  "mountain_top":true,
  "top_name":"Oštra čuka",
  "region_id":4,
  "id":74,
  "lat":43.5863889,
  "top_elevation":"1075",
  "lng":21.87166669999999},
 {"region_name":"Kopaoničko-Toplička regija",
  "name":"Ozren (Kraljevo)",
  "section":"",
  "mountain_top":true,
  "top_name":"Ozren",
  "region_id":6,
  "id":106,
  "lat":43.65194152502515,
  "top_elevation":"956",
  "lng":20.630521774291992},
 {"region_name":"Vojvodina",
  "name":"Palićko jezero",
  "section":"",
  "mountain_top":false,
  "top_name":"",
  "region_id":1,
  "id":35,
  "lat":46.0724496,
  "top_elevation":"",
  "lng":19.75395990000004},
 {"region_name":"Vojvodina",
  "name":"Park prirode Jegrička-Sirig",
  "section":"",
  "mountain_top":false,
  "top_name":"",
  "region_id":1,
  "id":92,
  "lat":45.45623923683373,
  "top_elevation":"",
  "lng":19.80811357498169},
 {"region_name":"Jugozapadna Srbija",
  "name":"Pobijenik",
  "section":"40",
  "mountain_top":true,
  "top_name":"Borak",
  "region_id":5,
  "id":194,
  "lat":43.47908753840574,
  "top_elevation":"1423",
  "lng":19.54625484499278},
 {"region_name":"Jugozapadna Srbija",
  "name":"Ponikve",
  "section":"",
  "mountain_top":true,
  "top_name":"Jarčevo brdo",
  "region_id":5,
  "id":419,
  "lat":44.801813,
  "top_elevation":"980",
  "lng":20.45328},
 {"region_name":"Zapadna Srbija",
  "name":"Povlen",
  "section":"",
  "mountain_top":true,
  "top_name":"Mali Povlen",
  "region_id":3,
  "id":66,
  "lat":44.1311111,
  "top_elevation":"1347",
  "lng":19.73972219999996},
 {"region_name":"Kopaoničko-Toplička regija",
  "name":"Radan",
  "section":"",
  "mountain_top":true,
  "top_name":"Šapot",
  "region_id":6,
  "id":79,
  "lat":43.0172222,
  "top_elevation":"1408",
  "lng":21.51027780000004},
 {"region_name":"Jugozapadna Srbija",
  "name":"Radočelo",
  "section":"",
  "mountain_top":true,
  "top_name":"Krivača",
  "region_id":5,
  "id":94,
  "lat":43.474518842053115,
  "top_elevation":"1643",
  "lng":20.473966598510742},
 {"region_name":"Šumadija",
  "name":"Radovanjska brda",
  "section":"",
  "mountain_top":false,
  "top_name":"",
  "region_id":2,
  "id":62,
  "lat":44.29137201741414,
  "top_elevation":"",
  "lng":21.00860595703125},
 {"region_name":"Zapadna Srbija",
  "name":"Rajac (suvoborski)",
  "section":"",
  "mountain_top":true,
  "top_name":"Rajac",
  "region_id":3,
  "id":42,
  "lat":44.1363192,
  "top_elevation":"848",
  "lng":20.223440200000027},
 {"region_name":"Istočna Srbija",
  "name":"Romulijana",
  "section":"",
  "mountain_top":false,
  "top_name":"",
  "region_id":4,
  "id":114,
  "lat":43.89863455767908,
  "top_elevation":"",
  "lng":22.184829711914062},
 {"region_name":"Istočna Srbija",
  "name":"Rožanj",
  "section":"",
  "mountain_top":true,
  "top_name":"Veliki vrh",
  "region_id":4,
  "id":75,
  "lat":43.717744742451956,
  "top_elevation":"902",
  "lng":21.696624755859375},
 {"region_name":"Zapadna Srbija",
  "name":"Rožanj (Čačak)",
  "section":"",
  "mountain_top":true,
  "top_name":"Kobiljača",
  "region_id":3,
  "id":389,
  "lat":43.99267362208252,
  "top_elevation":"601",
  "lng":20.340385528658157},
 {"region_name":"Istočna Srbija",
  "name":"Rtanj",
  "section":"",
  "mountain_top":true,
  "top_name":"Šiljak",
  "region_id":4,
  "id":71,
  "lat":43.76401615588438,
  "top_elevation":"1570",
  "lng":21.932830810546875},
 {"region_name":"Šumadija",
  "name":"Rudnik",
  "section":"",
  "mountain_top":true,
  "top_name":"Cvijićev vrh",
  "region_id":2,
  "id":49,
  "lat":44.1291667,
  "top_elevation":"1132",
  "lng":20.543333299999972},
 {"region_name":"Jugoistočna Srbija",
  "name":"Široka planina",
  "section":"",
  "mountain_top":true,
  "top_name":"Kopljača",
  "region_id":7,
  "id":99,
  "lat":42.3366875805004,
  "top_elevation":"1345",
  "lng":22.02286720275879},
 {"region_name":"Vojvodina",
  "name":"Slano Kopovo",
  "section":"",
  "mountain_top":false,
  "top_name":"",
  "region_id":1,
  "id":45,
  "lat":45.6140193,
  "top_elevation":"",
  "lng":20.225195999999983},
 {"region_name":"Istočna Srbija",
  "name":"Slemen",
  "section":"",
  "mountain_top":true,
  "top_name":"Slemen",
  "region_id":4,
  "id":73,
  "lat":43.6897222,
  "top_elevation":"1099",
  "lng":22.055555599999934},
 {"region_name":"Zapadna Srbija",
  "name":"Sokolska planina",
  "section":"",
  "mountain_top":true,
  "top_name":"Rožanj",
  "region_id":3,
  "id":129,
  "lat":44.28203643789236,
  "top_elevation":"973",
  "lng":19.45822063350397},
 {"region_name":"Istočna Srbija",
  "name":"Stara planina",
  "section":"",
  "mountain_top":true,
  "top_name":"Midžor",
  "region_id":4,
  "id":58,
  "lat":43.3947496,
  "top_elevation":"2170",
  "lng":22.67880059999993},
 {"region_name":"Jugozapadna Srbija",
  "name":"Stari Vlah",
  "section":"",
  "mountain_top":true,
  "top_name":"Veliki Oštrik",
  "region_id":5,
  "id":197,
  "lat":43.502992796562715,
  "top_elevation":"1283",
  "lng":19.655063037460117},
 {"region_name":"Istočna Srbija",
  "name":"Stig",
  "section":"",
  "mountain_top":false,
  "top_name":"",
  "region_id":4,
  "id":52,
  "lat":44.68711496355375,
  "top_elevation":"",
  "lng":21.19537353515625},
 {"region_name":"Kopaoničko-Toplička regija",
  "name":"Stolovi",
  "section":"",
  "mountain_top":true,
  "top_name":"Usovica",
  "region_id":6,
  "id":38,
  "lat":43.6058333,
  "top_elevation":"1375",
  "lng":20.61972220000007},
 {"region_name":"Kopaoničko-Toplička regija",
  "name":"Studena planina",
  "section":"",
  "mountain_top":true,
  "top_name":"Kavgalija",
  "region_id":6,
  "id":105,
  "lat":43.52555599999999,
  "top_elevation":"1355",
  "lng":20.680000000000064},
 {"region_name":"Zapadna Srbija",
  "name":"Subjel",
  "section":"",
  "mountain_top":true,
  "top_name":"Veliki Subjel",
  "region_id":3,
  "id":82,
  "lat":43.99984188187201,
  "top_elevation":"924",
  "lng":19.984130859375},
 {"region_name":"Jugoistočna Srbija",
  "name":"Suva planina",
  "section":"",
  "mountain_top":true,
  "top_name":"Trem",
  "region_id":7,
  "id":50,
  "lat":43.1833333,
  "top_elevation":"1810",
  "lng":22.171111099999962},
 {"region_name":"Zapadna Srbija",
  "name":"Suvobor",
  "section":"",
  "mountain_top":true,
  "top_name":"Suvobor",
  "region_id":3,
  "id":40,
  "lat":44.1213889,
  "top_elevation":"866",
  "lng":20.18194440000002},
 {"region_name":"Istočna Srbija",
  "name":"Svrljiške planine",
  "section":"",
  "mountain_top":true,
  "top_name":"Zeleni vrh",
  "region_id":4,
  "id":51,
  "lat":43.3375,
  "top_elevation":"1334",
  "lng":22.26083330000006},
 {"region_name":"Jugozapadna Srbija",
  "name":"Tara",
  "section":"",
  "mountain_top":true,
  "top_name":"Zborište",
  "region_id":5,
  "id":67,
  "lat":43.848333,
  "top_elevation":"1544",
  "lng":19.459443999999962},
 {"region_name":"Vojvodina",
  "name":"Telečka visoravan",
  "section":"",
  "mountain_top":false,
  "top_name":"",
  "region_id":1,
  "id":41,
  "lat":45.74975281088162,
  "top_elevation":"",
  "lng":19.364776611328125},
 {"region_name":"Istočna Srbija",
  "name":"Tresibaba",
  "section":"",
  "mountain_top":true,
  "top_name":"Čukar",
  "region_id":4,
  "id":115,
  "lat":43.475159402278805,
  "top_elevation":"826",
  "lng":22.129357216987046},
 {"region_name":"Jugozapadna Srbija",
  "name":"Troglav",
  "section":"",
  "mountain_top":true,
  "top_name":"Kom",
  "region_id":5,
  "id":39,
  "lat":43.6477778,
  "top_elevation":"1178",
  "lng":20.480277800000067},
 {"region_name":"Istočna Srbija",
  "name":"Tupižnica",
  "section":"",
  "mountain_top":true,
  "top_name":"Glogovački vrh",
  "region_id":4,
  "id":123,
  "lat":43.7028954,
  "top_elevation":"1160",
  "lng":22.151691000000028},
 {"region_name":"Jugoistočna Srbija",
  "name":"Vardenik",
  "section":"",
  "mountain_top":true,
  "top_name":"Veliki Strešer",
  "region_id":7,
  "id":98,
  "lat":42.62660901734979,
  "top_elevation":"1876",
  "lng":22.267355918884277},
 {"region_name":"Kopaoničko-Toplička regija",
  "name":"Veliki Jastrebac",
  "section":"",
  "mountain_top":true,
  "top_name":"Velika Đulica",
  "region_id":6,
  "id":77,
  "lat":43.4011111,
  "top_elevation":"1491",
  "lng":21.413055600000007},
 {"region_name":"Šumadija",
  "name":"Venčac",
  "section":"",
  "mountain_top":true,
  "top_name":"Venčac",
  "region_id":2,
  "id":87,
  "lat":44.26278129912987,
  "top_elevation":"659",
  "lng":20.592777729034424},
 {"region_name":"Zapadna Srbija",
  "name":"Vlašić",
  "section":"",
  "mountain_top":true,
  "top_name":"Veliki beleg",
  "region_id":3,
  "id":121,
  "lat":44.379167,
  "top_elevation":"452",
  "lng":19.806110999999987},
 {"region_name":"Vojvodina",
  "name":"Vršačke planine",
  "section":"",
  "mountain_top":true,
  "top_name":"Gudurički vrh",
  "region_id":1,
  "id":33,
  "lat":45.1374624,
  "top_elevation":"641",
  "lng":21.41156490000003},
 {"region_name":"Šumadija",
  "name":"Vujan",
  "section":"",
  "mountain_top":false,
  "top_name":"",
  "region_id":2,
  "id":84,
  "lat":43.972222,
  "top_elevation":"",
  "lng":20.46916699999997},
 {"region_name":"Istočna Srbija",
  "name":"Vukan",
  "section":"",
  "mountain_top":true,
  "top_name":"Veliki Vukan",
  "region_id":4,
  "id":111,
  "lat":44.2994444,
  "top_elevation":"825",
  "lng":21.538611100000026},
 {"region_name":"Kopaoničko-Toplička regija",
  "name":"Žaračka planina",
  "section":"",
  "mountain_top":true,
  "top_name":"Bandera",
  "region_id":6,
  "id":104,
  "lat":43.478861650335126,
  "top_elevation":"1051",
  "lng":20.659103393554688},
 {"region_name":"Zapadna Srbija",
  "name":"Zasavica",
  "section":"",
  "mountain_top":false,
  "top_name":"",
  "region_id":3,
  "id":64,
  "lat":44.957624,
  "top_elevation":"",
  "lng":19.52636899999993},
 {"region_name":"Kopaoničko-Toplička regija",
  "name":"Željin",
  "section":"",
  "mountain_top":true,
  "top_name":"Željin",
  "region_id":6,
  "id":80,
  "lat":43.477289,
  "top_elevation":"1784",
  "lng":20.804385899999943},
 {"region_name":"Jugozapadna Srbija",
  "name":"Zlatibor",
  "section":"",
  "mountain_top":true,
  "top_name":"Bandera (Tornik)",
  "region_id":5,
  "id":122,
  "lat":43.6540869,
  "top_elevation":"1496",
  "lng":19.63969229999998}]
